[
  {
    "id": 1717083600002,
    "type": "Rain",
    "location": "Velachery",
    "description": "No electricity for 4 hours",
    "lat": 12.9792,
    "lng": 80.2186,
    "publishedAt": "2024-11-01T11:15:00Z",
    "reporterId": 2
  },
  {
    "id": 1717083600003,
    "type": "Road Block",
    "location": "Guindy",
    "description": "Tree fallen near Guindy flyover",
    "lat": 13.0107,
    "lng": 80.2206,
    "publishedAt": "2024-11-01T12:45:00Z",
    "reporterId": 1
  },
  {
    "id": 1748782671510,
    "type": "Rain",
    "location": "perambur",
    "description": "Weather event: Raining",
    "lat": 13.1196,
    "lng": 80.2332,
    "publishedAt": "2025-06-01T12:57:51.510Z",
    "reporterId": "1"
  },
  {
    "id": 1748782677256,
    "type": "Clouds",
    "location": "perambur",
    "description": "Weather event: broken clouds",
    "lat": 13.1196,
    "lng": 80.2332,
    "publishedAt": "2025-06-01T12:57:57.256Z",
    "reporterId": "1"
  },
  {
    "id": 1748782923867,
    "type": "Clouds",
    "location": "chennai beach",
    "description": "Weather event: broken clouds",
    "lat": 13.0878,
    "lng": 80.2932,
    "publishedAt": "2025-06-01T13:02:03.867Z",
    "reporterId": "1"
  },
  {
    "id": 1748793725850,
    "type": "Rain",
    "location": "perambur",
    "description": "Jai Shree Ram",
    "lat": 13.1196,
    "lng": 80.2332,
    "publishedAt": "2025-06-01T16:02:05.850Z",
    "reporterName": "Prakhar"
  },
  {
    "id": 1748844348135,
    "type": "Rain",
    "location": "perambur",
    "description": "Heavy Raining",
    "lat": 13.1196,
    "lng": 80.2332,
    "publishedAt": "2025-06-02T06:05:48.135Z",
    "reporterName": "Prakhar"
  },
  {
    "id": 1748844495235,
    "type": "Rain",
    "location": "perambur",
    "description": "Heavy Raining",
    "lat": 13.1196,
    "lng": 80.2332,
    "publishedAt": "2025-06-02T06:08:15.235Z",
    "reporterName": "Prakhar"
  },
  {
    "id": 1748844496133,
    "type": "Rain",
    "location": "perambur",
    "description": "Heavy Raining",
    "lat": 13.1196,
    "lng": 80.2332,
    "publishedAt": "2025-06-02T06:08:16.133Z",
    "reporterName": "Prakhar"
  },
  {
    "id": 1748846126622,
    "type": "Clouds",
    "location": "t_nagar",
    "description": "It is cloudy weather there is less chance of rain.",
    "lat": 13.0449,
    "lng": 80.2337,
    "publishedAt": "2025-06-02T06:35:26.622Z",
    "reporterName": "Trimble"
  },
  {
    "id": 1748849348343,
    "type": "Clouds",
    "location": "perambur",
    "description": "Cloudy weather",
    "lat": 13.1196,
    "lng": 80.2332,
    "publishedAt": "2025-06-02T07:29:08.343Z",
    "reporterName": "Prakhar"
  }
]